{
  "filename": "medieval_europe_dataset.json",
  "description": "Significant events from Medieval European history",
  "events": [
    {
      "name": "Charlemagne Crowned Emperor",
      "description": "Charlemagne crowned Holy Roman Emperor by Pope Leo III, reviving the concept of empire in Western Europe",
      "date": "25.12.800",
      "era": "AD",
      "latitude": 41.9028,
      "longitude": 12.4964,
      "type": "political",
      "tags": ["Medieval", "Political", "Charlemagne", "Holy Roman Empire"]
    },
    {
      "name": "Viking Raid on Lindisfarne",
      "description": "Viking raid on the monastery of Lindisfarne, traditionally marking the beginning of the Viking Age",
      "date": "08.06.793",
      "era": "AD",
      "latitude": 55.6692,
      "longitude": -1.8067,
      "type": "military",
      "tags": ["Medieval", "Military", "Viking", "Raid"]
    },
    {
      "name": "Battle of Hastings",
      "description": "William the Conqueror defeats King Harold II, leading to the Norman conquest of England",
      "date": "14.10.1066",
      "era": "AD",
      "latitude": 50.9115,
      "longitude": 0.4900,
      "type": "military",
      "tags": ["Medieval", "Military", "Norman", "England"]
    },
    {
      "name": "First Crusade Begins",
      "description": "Pope Urban II calls for the First Crusade to recapture the Holy Land from Muslim control",
      "date": "27.11.1095",
      "era": "AD",
      "latitude": 43.8832,
      "longitude": 4.8925,
      "type": "military",
      "tags": ["Medieval", "Military", "Crusades", "Religious"]
    },
    {
      "name": "Signing of the Magna Carta",
      "description": "King John of England signs the Magna Carta, limiting royal power and establishing principles of constitutional law",
      "date": "15.06.1215",
      "era": "AD",
      "latitude": 51.4084,
      "longitude": -0.5536,
      "type": "political",
      "tags": ["Medieval", "Political", "England", "Constitutional Law"]
    },
    {
      "name": "Black Death Reaches Europe",
      "description": "The bubonic plague reaches Europe, killing an estimated one-third of the European population",
      "date": "01.01.1347",
      "era": "AD",
      "latitude": 43.7696,
      "longitude": 11.2558,
      "type": "historic",
      "tags": ["Medieval", "Pandemic", "Black Death", "Disaster"]
    },
    {
      "name": "Fall of Constantinople",
      "description": "Ottoman Empire conquers Constantinople, ending the Byzantine Empire and medieval period",
      "date": "29.05.1453",
      "era": "AD",
      "latitude": 41.0082,
      "longitude": 28.9784,
      "type": "military",
      "tags": ["Medieval", "Military", "Ottoman", "Byzantine"]
    }
  ]
}