{
  "filename": "renaissance_dataset.json",
  "description": "Key events and developments during the Renaissance period",
  "events": [
    {
      "name": "Leonardo da Vinci Born",
      "description": "Birth of Leonardo da Vinci, Renaissance polymath and artist who epitomized the Renaissance ideal",
      "date": "15.04.1452",
      "era": "AD",
      "latitude": 43.7834,
      "longitude": 10.9216,
      "type": "cultural",
      "tags": ["Renaissance", "Cultural", "Art", "Leonardo da Vinci"]
    },
    {
      "name": "Columbus Reaches the Americas",
      "description": "Christopher Columbus lands in the Bahamas, beginning European exploration and colonization of the Americas",
      "date": "12.10.1492",
      "era": "AD",
      "latitude": 24.2500,
      "longitude": -76.0000,
      "type": "historic",
      "tags": ["Renaissance", "Exploration", "Columbus", "Americas"]
    },
    {
      "name": "Sistine Chapel Ceiling Completed",
      "description": "Michelangelo completes painting the ceiling of the Sistine Chapel, one of the greatest works of Renaissance art",
      "date": "31.10.1512",
      "era": "AD",
      "latitude": 41.9029,
      "longitude": 12.4545,
      "type": "cultural",
      "tags": ["Renaissance", "Cultural", "Art", "Michelangelo"]
    },
    {
      "name": "Luther Posts 95 Theses",
      "description": "Martin Luther posts his 95 Theses, sparking the Protestant Reformation and religious transformation of Europe",
      "date": "31.10.1517",
      "era": "AD",
      "latitude": 51.8661,
      "longitude": 12.6428,
      "type": "cultural",
      "tags": ["Renaissance", "Religious", "Protestant Reformation", "Luther"]
    },
    {
      "name": "Gutenberg Bible Printed",
      "description": "Johannes Gutenberg completes printing the first major book using movable type, revolutionizing communication",
      "date": "01.01.1455",
      "era": "AD",
      "latitude": 50.0012,
      "longitude": 8.2762,
      "type": "scientific",
      "tags": ["Renaissance", "Scientific", "Printing", "Gutenberg"]
    },
    {
      "name": "Copernicus Publishes Heliocentric Theory",
      "description": "Nicolaus Copernicus publishes 'De revolutionibus', proposing that the Earth revolves around the Sun",
      "date": "24.05.1543",
      "era": "AD",
      "latitude": 54.3520,
      "longitude": 18.6466,
      "type": "scientific",
      "tags": ["Renaissance", "Scientific", "Astronomy", "Copernicus"]
    }
  ]
}